<?xml version="1.0" encoding="UTF-8"?>
<kml xmlns="http://earth.google.com/kml/2.0">
<Document>

<Placemark>
<Style><IconStyle><Icon><href>http://tpds.gwtrack.com/static/kml/godown.png</href></Icon></IconStyle></Style>
	<name>Hosur</name>
	<description> DRC, Krishnagiri</description>
	<Point>
	<coordinates>77.81672,12.706817,678</coordinates>
	</Point>
</Placemark>
<Placemark>
<Style><IconStyle><Icon><href>http://tpds.gwtrack.com/static/kml/godown.png</href></Icon></IconStyle></Style>
	<name>Denkanikottai</name>
	<description> DRC, Krishnagiri</description>
	<Point>
	<coordinates>77.78802,12.513807,678</coordinates>
	</Point>
</Placemark>
<Placemark>
<Style><IconStyle><Icon><href>http://tpds.gwtrack.com/static/kml/godown.png</href></Icon></IconStyle></Style>
	<name>Pochampalli</name>
	<description> DRC, Krishnagiri</description>
	<Point>
	<coordinates>78.347839,12.332759,678</coordinates>
	</Point>
</Placemark>
<Placemark>
<Style><IconStyle><Icon><href>http://tpds.gwtrack.com/static/kml/godown.png</href></Icon></IconStyle></Style>
	<name>Uthangarai</name>
	<description> DRC, Krishnagiri</description>
	<Point>
	<coordinates>78.532429,12.27692,678</coordinates>
	</Point>
</Placemark>
<Placemark>
<Style><IconStyle><Icon><href>http://tpds.gwtrack.com/static/kml/godown.png</href></Icon></IconStyle></Style>
	<name>Krishnagiri</name>
	<description> DRC, Krishnagiri</description>
	<Point>
	<coordinates>78.221389,12.524925,678</coordinates>
	</Point>
</Placemark>
<Placemark>
<Style><IconStyle><Icon><href>http://tpds.gwtrack.com/static/kml/godown.png</href></Icon></IconStyle></Style>
	<name>Dharmapuri</name>
	<description> FCI, Krishnagiri</description>
	<Point>
	<coordinates>78.144657,12.105428,678</coordinates>
	</Point>
</Placemark>
<Placemark>
<Style><IconStyle><Icon><href>http://tpds.gwtrack.com/static/kml/godown.png</href></Icon></IconStyle></Style>
	<name>Krishnagiri</name>
	<description> FCI, Krishnagiri</description>
	<Point>
	<coordinates>78.231901,12.518222,678</coordinates>
	</Point>
</Placemark>
<Placemark>
<Style><IconStyle><Icon><href>http://tpds.gwtrack.com/static/kml/godown.png</href></Icon></IconStyle></Style>
	<name>Tiruvallur</name>
	<description> DRC, Tiruvallur</description>
	<Point>
	<coordinates>79.9073,13.141053,678</coordinates>
	</Point>
</Placemark>
<Placemark>
<Style><IconStyle><Icon><href>http://tpds.gwtrack.com/static/kml/godown.png</href></Icon></IconStyle></Style>
	<name>Tiruttani</name>
	<description> DRC, Tiruvallur</description>
	<Point>
	<coordinates>79.602939,13.178404,678</coordinates>
	</Point>
</Placemark>
<Placemark>
<Style><IconStyle><Icon><href>http://tpds.gwtrack.com/static/kml/godown.png</href></Icon></IconStyle></Style>
	<name>Pallipat</name>
	<description> DRC, Tiruvallur</description>
	<Point>
	<coordinates>79.446333,13.303555,678</coordinates>
	</Point>
</Placemark>
<Placemark>
<Style><IconStyle><Icon><href>http://tpds.gwtrack.com/static/kml/godown.png</href></Icon></IconStyle></Style>
	<name>Nazarathpet</name>
	<description> DRC, Tiruvallur</description>
	<Point>
	<coordinates>80.08029,13.047195,678</coordinates>
	</Point>
</Placemark>
<Placemark>
<Style><IconStyle><Icon><href>http://tpds.gwtrack.com/static/kml/godown.png</href></Icon></IconStyle></Style>
	<name>Uttukkottai</name>
	<description> DRC, Tiruvallur</description>
	<Point>
	<coordinates>79.885962,13.283554,678</coordinates>
	</Point>
</Placemark>
<Placemark>
<Style><IconStyle><Icon><href>http://tpds.gwtrack.com/static/kml/godown.png</href></Icon></IconStyle></Style>
	<name>Redhills</name>
	<description> DRC, Tiruvallur</description>
	<Point>
	<coordinates>80.165077,13.225998,678</coordinates>
	</Point>
</Placemark>
<Placemark>
<Style><IconStyle><Icon><href>http://tpds.gwtrack.com/static/kml/godown.png</href></Icon></IconStyle></Style>
	<name>Thachur</name>
	<description> DRC, Tiruvallur</description>
	<Point>
	<coordinates>80.165143,13.225857,678</coordinates>
	</Point>
</Placemark>
<Placemark>
<Style><IconStyle><Icon><href>http://tpds.gwtrack.com/static/kml/godown.png</href></Icon></IconStyle></Style>
	<name>Arakkonam</name>
	<description> FCI, Tiruvallur</description>
	<Point>
	<coordinates>79.647659,13.075392,678</coordinates>
	</Point>
</Placemark>
<Placemark>
<Style><IconStyle><Icon><href>http://tpds.gwtrack.com/static/kml/godown.png</href></Icon></IconStyle></Style>
	<name>Egmore</name>
	<description> FCI, Tiruvallur</description>
	<Point>
	<coordinates>80.249205,13.074316,678</coordinates>
	</Point>
</Placemark>
<Placemark>
<Style><IconStyle><Icon><href>http://tpds.gwtrack.com/static/kml/godown.png</href></Icon></IconStyle></Style>
	<name>Avadi</name>
	<description> FCI, Tiruvallur</description>
	<Point>
	<coordinates>80.072969,13.126814,678</coordinates>
	</Point>
</Placemark>
</Document>
</kml>