<?xml version="1.0" encoding="UTF-8"?>
<kml xmlns="http://earth.google.com/kml/2.0">
<Document>

<Placemark>
<Style><IconStyle><Icon><href>http://tpds.gwtrack.com/static/kml/FPS.png</href></Icon></IconStyle></Style>
	<name>AMUDHAM (PONNERI)</name>
	<description> BA001, Ponneri</description>
	<Point>
	<coordinates>80.187278,13.329431,678</coordinates>
	</Point>
</Placemark>
<Placemark>
<Style><IconStyle><Icon><href>http://tpds.gwtrack.com/static/kml/FPS.png</href></Icon></IconStyle></Style>
	<name>PONNERI-1</name>
	<description> BB001, Ponneri</description>
	<Point>
	<coordinates>80.193259,13.333993,678</coordinates>
	</Point>
</Placemark>
<Placemark>
<Style><IconStyle><Icon><href>http://tpds.gwtrack.com/static/kml/FPS.png</href></Icon></IconStyle></Style>
	<name>PONNERI-2</name>
	<description> BB002, Ponneri</description>
	<Point>
	<coordinates>80.196269,13.340038,678</coordinates>
	</Point>
</Placemark>
<Placemark>
<Style><IconStyle><Icon><href>http://tpds.gwtrack.com/static/kml/FPS.png</href></Icon></IconStyle></Style>
	<name>PONNERI-3</name>
	<description> BB003, Ponneri</description>
	<Point>
	<coordinates>80.186892,13.328805,678</coordinates>
	</Point>
</Placemark>
<Placemark>
<Style><IconStyle><Icon><href>http://tpds.gwtrack.com/static/kml/FPS.png</href></Icon></IconStyle></Style>
	<name>PONNERI-4</name>
	<description> BB004, Ponneri</description>
	<Point>
	<coordinates>80.188222,13.334233,678</coordinates>
	</Point>
</Placemark>
<Placemark>
<Style><IconStyle><Icon><href>http://tpds.gwtrack.com/static/kml/FPS.png</href></Icon></IconStyle></Style>
	<name>MINJUR-1</name>
	<description> BB005, Ponneri</description>
	<Point>
	<coordinates>80.25988,13.280683,678</coordinates>
	</Point>
</Placemark>
<Placemark>
<Style><IconStyle><Icon><href>http://tpds.gwtrack.com/static/kml/FPS.png</href></Icon></IconStyle></Style>
	<name>MINJUR-2</name>
	<description> BB006, Ponneri</description>
	<Point>
	<coordinates>80.264643,13.267693,678</coordinates>
	</Point>
</Placemark>
<Placemark>
<Style><IconStyle><Icon><href>http://tpds.gwtrack.com/static/kml/FPS.png</href></Icon></IconStyle></Style>
	<name>PAZHAVERKADU-1</name>
	<description> BB007, Ponneri</description>
	<Point>
	<coordinates>80.317333,13.417673,678</coordinates>
	</Point>
</Placemark>
<Placemark>
<Style><IconStyle><Icon><href>http://tpds.gwtrack.com/static/kml/FPS.png</href></Icon></IconStyle></Style>
	<name>KOTTAIKUPPAM</name>
	<description> BB008, Ponneri</description>
	<Point>
	<coordinates>80.314983,13.422108,678</coordinates>
	</Point>
</Placemark>
<Placemark>
<Style><IconStyle><Icon><href>http://tpds.gwtrack.com/static/kml/FPS.png</href></Icon></IconStyle></Style>
	<name>JAMEELABATH</name>
	<description> BB009, Ponneri</description>
	<Point>
	<coordinates>80.308487,13.426215,678</coordinates>
	</Point>
</Placemark>
<Placemark>
<Style><IconStyle><Icon><href>http://tpds.gwtrack.com/static/kml/FPS.png</href></Icon></IconStyle></Style>
	<name>SANKARNAGAR PNI-5</name>
	<description> BB010, Ponneri</description>
	<Point>
	<coordinates>80.201633,13.327468,678</coordinates>
	</Point>
</Placemark>
<Placemark>
<Style><IconStyle><Icon><href>http://tpds.gwtrack.com/static/kml/FPS.png</href></Icon></IconStyle></Style>
	<name>PONNERI-6</name>
	<description> BB011, Ponneri</description>
	<Point>
	<coordinates>80.196344,13.334547,678</coordinates>
	</Point>
</Placemark>
<Placemark>
<Style><IconStyle><Icon><href>http://tpds.gwtrack.com/static/kml/FPS.png</href></Icon></IconStyle></Style>
	<name>PONNERI-7</name>
	<description> BB012, Ponneri</description>
	<Point>
	<coordinates>80.200388,13.340017,678</coordinates>
	</Point>
</Placemark>
<Placemark>
<Style><IconStyle><Icon><href>http://tpds.gwtrack.com/static/kml/FPS.png</href></Icon></IconStyle></Style>
	<name>MINJUR-3</name>
	<description> BB013, Ponneri</description>
	<Point>
	<coordinates>80.273345,13.261688,678</coordinates>
	</Point>
</Placemark>
<Placemark>
<Style><IconStyle><Icon><href>http://tpds.gwtrack.com/static/kml/FPS.png</href></Icon></IconStyle></Style>
	<name>MINJUR-4</name>
	<description> BB014, Ponneri</description>
	<Point>
	<coordinates>80.2562,13.279983,678</coordinates>
	</Point>
</Placemark>
<Placemark>
<Style><IconStyle><Icon><href>http://tpds.gwtrack.com/static/kml/FPS.png</href></Icon></IconStyle></Style>
	<name>PAZHAVERKADU-2</name>
	<description> BB015, Ponneri</description>
	<Point>
	<coordinates>80.318556,13.417736,678</coordinates>
	</Point>
</Placemark>
<Placemark>
<Style><IconStyle><Icon><href>http://tpds.gwtrack.com/static/kml/FPS.png</href></Icon></IconStyle></Style>
	<name>S.T.C.M.S PADIYANALLUR</name>
	<description> BE001, Ponneri</description>
	<Point>
	<coordinates>80.175133,13.204267,678</coordinates>
	</Point>
</Placemark>
<Placemark>
<Style><IconStyle><Icon><href>http://tpds.gwtrack.com/static/kml/FPS.png</href></Icon></IconStyle></Style>
	<name>ASHOK LEYLAND</name>
	<description> BO008, Ponneri</description>
	<Point>
	<coordinates>80.259118,13.279085,678</coordinates>
	</Point>
</Placemark>
<Placemark>
<Style><IconStyle><Icon><href>http://tpds.gwtrack.com/static/kml/FPS.png</href></Icon></IconStyle></Style>
	<name>Athipattu Pudu Nagar</name>
	<description> BO007, Ponneri</description>
	<Point>
	<coordinates>80.295613,13.249971,678</coordinates>
	</Point>
</Placemark>
<Placemark>
<Style><IconStyle><Icon><href>http://tpds.gwtrack.com/static/kml/FPS.png</href></Icon></IconStyle></Style>
	<name>ARANI-1</name>
	<description> BP001, Ponneri</description>
	<Point>
	<coordinates>80.085289,13.335444,678</coordinates>
	</Point>
</Placemark>
<Placemark>
<Style><IconStyle><Icon><href>http://tpds.gwtrack.com/static/kml/FPS.png</href></Icon></IconStyle></Style>
	<name>ARANI-2</name>
	<description> BP002, Ponneri</description>
	<Point>
	<coordinates>80.084832,13.337261,678</coordinates>
	</Point>
</Placemark>
<Placemark>
<Style><IconStyle><Icon><href>http://tpds.gwtrack.com/static/kml/FPS.png</href></Icon></IconStyle></Style>
	<name>ARANI-3</name>
	<description> BP003, Ponneri</description>
	<Point>
	<coordinates>80.087671,13.330914,678</coordinates>
	</Point>
</Placemark>
<Placemark>
<Style><IconStyle><Icon><href>http://tpds.gwtrack.com/static/kml/FPS.png</href></Icon></IconStyle></Style>
	<name>ARANI RCS</name>
	<description> BP004, Ponneri</description>
	<Point>
	<coordinates>80.086178,13.331039,678</coordinates>
	</Point>
</Placemark>
<Placemark>
<Style><IconStyle><Icon><href>http://tpds.gwtrack.com/static/kml/FPS.png</href></Icon></IconStyle></Style>
	<name>PERIYAKAVANAM</name>
	<description> BP005, Ponneri</description>
	<Point>
	<coordinates>80.188007,13.340414,678</coordinates>
	</Point>
</Placemark>
<Placemark>
<Style><IconStyle><Icon><href>http://tpds.gwtrack.com/static/kml/FPS.png</href></Icon></IconStyle></Style>
	<name>CHIANAKAVANAM</name>
	<description> BP006, Ponneri</description>
	<Point>
	<coordinates>80.196247,13.346155,678</coordinates>
	</Point>
</Placemark>
<Placemark>
<Style><IconStyle><Icon><href>http://tpds.gwtrack.com/static/kml/FPS.png</href></Icon></IconStyle></Style>
	<name>ARIYANVOYAL</name>
	<description> BP007, Ponneri</description>
	<Point>
	<coordinates>80.258303,13.280839,678</coordinates>
	</Point>
</Placemark>
<Placemark>
<Style><IconStyle><Icon><href>http://tpds.gwtrack.com/static/kml/FPS.png</href></Icon></IconStyle></Style>
	<name>PUDUPEDU</name>
	<description> BP008, Ponneri</description>
	<Point>
	<coordinates>80.266714,13.280631,678</coordinates>
	</Point>
</Placemark>
<Placemark>
<Style><IconStyle><Icon><href>http://tpds.gwtrack.com/static/kml/FPS.png</href></Icon></IconStyle></Style>
	<name>ALADU</name>
	<description> BP009, Ponneri</description>
	<Point>
	<coordinates>80.214851,13.333189,678</coordinates>
	</Point>
</Placemark>
<Placemark>
<Style><IconStyle><Icon><href>http://tpds.gwtrack.com/static/kml/FPS.png</href></Icon></IconStyle></Style>
	<name>SIVAPURAM</name>
	<description> BP010, Ponneri</description>
	<Point>
	<coordinates>80.218155,13.335424,678</coordinates>
	</Point>
</Placemark>
<Placemark>
<Style><IconStyle><Icon><href>http://tpds.gwtrack.com/static/kml/FPS.png</href></Icon></IconStyle></Style>
	<name>ELIAMBEDU</name>
	<description> BP011, Ponneri</description>
	<Point>
	<coordinates>80.175562,13.338347,678</coordinates>
	</Point>
</Placemark>
<Placemark>
<Style><IconStyle><Icon><href>http://tpds.gwtrack.com/static/kml/FPS.png</href></Icon></IconStyle></Style>
	<name>KANAGAMPAKKAM</name>
	<description> BP012, Ponneri</description>
	<Point>
	<coordinates>80.149426,13.361939,678</coordinates>
	</Point>
</Placemark>
<Placemark>
<Style><IconStyle><Icon><href>http://tpds.gwtrack.com/static/kml/FPS.png</href></Icon></IconStyle></Style>
	<name>THIRUPER</name>
	<description> BP013, Ponneri</description>
	<Point>
	<coordinates>80.148375,13.360895,678</coordinates>
	</Point>
</Placemark>
<Placemark>
<Style><IconStyle><Icon><href>http://tpds.gwtrack.com/static/kml/FPS.png</href></Icon></IconStyle></Style>
	<name>KRISHNAPURAM</name>
	<description> BP022, Ponneri</description>
	<Point>
	<coordinates>80.185175,13.318678,678</coordinates>
	</Point>
</Placemark>
<Placemark>
<Style><IconStyle><Icon><href>http://tpds.gwtrack.com/static/kml/FPS.png</href></Icon></IconStyle></Style>
	<name>KODUR</name>
	<description> BP023, Ponneri</description>
	<Point>
	<coordinates>80.185175,13.318678,678</coordinates>
	</Point>
</Placemark>
<Placemark>
<Style><IconStyle><Icon><href>http://tpds.gwtrack.com/static/kml/FPS.png</href></Icon></IconStyle></Style>
	<name>THADAPERUMPAKKAM</name>
	<description> BP024, Ponneri</description>
	<Point>
	<coordinates>80.19556,13.320098,678</coordinates>
	</Point>
</Placemark>
<Placemark>
<Style><IconStyle><Icon><href>http://tpds.gwtrack.com/static/kml/FPS.png</href></Icon></IconStyle></Style>
	<name>MADHAVARAM</name>
	<description> BP025, Ponneri</description>
	<Point>
	<coordinates>80.17127,13.30523,678</coordinates>
	</Point>
</Placemark>
<Placemark>
<Style><IconStyle><Icon><href>http://tpds.gwtrack.com/static/kml/FPS.png</href></Icon></IconStyle></Style>
	<name>SYNAVARAM</name>
	<description> BP026, Ponneri</description>
	<Point>
	<coordinates>80.175691,13.30949,678</coordinates>
	</Point>
</Placemark>
<Placemark>
<Style><IconStyle><Icon><href>http://tpds.gwtrack.com/static/kml/FPS.png</href></Icon></IconStyle></Style>
	<name>ANDARKUPPAM</name>
	<description> BP027, Ponneri</description>
	<Point>
	<coordinates>80.160885,13.306776,678</coordinates>
	</Point>
</Placemark>
<Placemark>
<Style><IconStyle><Icon><href>http://tpds.gwtrack.com/static/kml/FPS.png</href></Icon></IconStyle></Style>
	<name>PERUNCHERY</name>
	<description> BP028, Ponneri</description>
	<Point>
	<coordinates>80.166121,13.309532,678</coordinates>
	</Point>
</Placemark>
<Placemark>
<Style><IconStyle><Icon><href>http://tpds.gwtrack.com/static/kml/FPS.png</href></Icon></IconStyle></Style>
	<name>PERAVALLUR</name>
	<description> BP029, Ponneri</description>
	<Point>
	<coordinates>80.155735,13.313541,678</coordinates>
	</Point>
</Placemark>
<Placemark>
<Style><IconStyle><Icon><href>http://tpds.gwtrack.com/static/kml/FPS.png</href></Icon></IconStyle></Style>
	<name>VAIRAVANKUPPAM</name>
	<description> BP030, Ponneri</description>
	<Point>
	<coordinates>80.170197,13.331874,678</coordinates>
	</Point>
</Placemark>
<Placemark>
<Style><IconStyle><Icon><href>http://tpds.gwtrack.com/static/kml/FPS.png</href></Icon></IconStyle></Style>
	<name>AMOOR</name>
	<description> BP031, Ponneri</description>
	<Point>
	<coordinates>80.184145,13.298841,678</coordinates>
	</Point>
</Placemark>
<Placemark>
<Style><IconStyle><Icon><href>http://tpds.gwtrack.com/static/kml/FPS.png</href></Icon></IconStyle></Style>
	<name>VADAKKUPATTU</name>
	<description> BP032, Ponneri</description>
	<Point>
	<coordinates>80.184145,13.298841,678</coordinates>
	</Point>
</Placemark>
<Placemark>
<Style><IconStyle><Icon><href>http://tpds.gwtrack.com/static/kml/FPS.png</href></Icon></IconStyle></Style>
	<name>THIRUVENGADAPURAM</name>
	<description> BP033, Ponneri</description>
	<Point>
	<coordinates>80.196548,13.324357,678</coordinates>
	</Point>
</Placemark>
<Placemark>
<Style><IconStyle><Icon><href>http://tpds.gwtrack.com/static/kml/FPS.png</href></Icon></IconStyle></Style>
	<name>CHINNAMBEDU</name>
	<description> BP035, Ponneri</description>
	<Point>
	<coordinates>80.117047,13.324128,678</coordinates>
	</Point>
</Placemark>
<Placemark>
<Style><IconStyle><Icon><href>http://tpds.gwtrack.com/static/kml/FPS.png</href></Icon></IconStyle></Style>
	<name>VADAKKUNALLUR</name>
	<description> BP036, Ponneri</description>
	<Point>
	<coordinates>80.123119,13.325067,678</coordinates>
	</Point>
</Placemark>
<Placemark>
<Style><IconStyle><Icon><href>http://tpds.gwtrack.com/static/kml/FPS.png</href></Icon></IconStyle></Style>
	<name>DURAINELLUR</name>
	<description> BP037, Ponneri</description>
	<Point>
	<coordinates>80.133591,13.326153,678</coordinates>
	</Point>
</Placemark>
<Placemark>
<Style><IconStyle><Icon><href>http://tpds.gwtrack.com/static/kml/FPS.png</href></Icon></IconStyle></Style>
	<name>KIZHMENI</name>
	<description> BP038, Ponneri</description>
	<Point>
	<coordinates>80.134192,13.303769,678</coordinates>
	</Point>
</Placemark>
<Placemark>
<Style><IconStyle><Icon><href>http://tpds.gwtrack.com/static/kml/FPS.png</href></Icon></IconStyle></Style>
	<name>SEVITTUPANAPAKKAM</name>
	<description> BP039, Ponneri</description>
	<Point>
	<coordinates>80.123119,13.325067,678</coordinates>
	</Point>
</Placemark>
<Placemark>
<Style><IconStyle><Icon><href>http://tpds.gwtrack.com/static/kml/FPS.png</href></Icon></IconStyle></Style>
	<name>SHOZHAVARAM-1</name>
	<description> BP040, Ponneri</description>
	<Point>
	<coordinates>80.16891,13.237523,678</coordinates>
	</Point>
</Placemark>
<Placemark>
<Style><IconStyle><Icon><href>http://tpds.gwtrack.com/static/kml/FPS.png</href></Icon></IconStyle></Style>
	<name>SHOZHAVARAM-2</name>
	<description> BP041, Ponneri</description>
	<Point>
	<coordinates>80.170841,13.236248,678</coordinates>
	</Point>
</Placemark>
<Placemark>
<Style><IconStyle><Icon><href>http://tpds.gwtrack.com/static/kml/FPS.png</href></Icon></IconStyle></Style>
	<name>KUMMANOOR</name>
	<description> BP042, Ponneri</description>
	<Point>
	<coordinates>80.182858,13.221063,678</coordinates>
	</Point>
</Placemark>
<Placemark>
<Style><IconStyle><Icon><href>http://tpds.gwtrack.com/static/kml/FPS.png</href></Icon></IconStyle></Style>
	<name>SOTHUPAKKAM</name>
	<description> BP043, Ponneri</description>
	<Point>
	<coordinates>80.185518,13.219392,678</coordinates>
	</Point>
</Placemark>
<Placemark>
<Style><IconStyle><Icon><href>http://tpds.gwtrack.com/static/kml/FPS.png</href></Icon></IconStyle></Style>
	<name>KARONODAI</name>
	<description> BP044, Ponneri</description>
	<Point>
	<coordinates>80.164189,13.235225,678</coordinates>
	</Point>
</Placemark>
<Placemark>
<Style><IconStyle><Icon><href>http://tpds.gwtrack.com/static/kml/FPS.png</href></Icon></IconStyle></Style>
	<name>SEMBULIVARAM</name>
	<description> BP045, Ponneri</description>
	<Point>
	<coordinates>80.167108,13.229502,678</coordinates>
	</Point>
</Placemark>
<Placemark>
<Style><IconStyle><Icon><href>http://tpds.gwtrack.com/static/kml/FPS.png</href></Icon></IconStyle></Style>
	<name>SIRUNIYAM</name>
	<description> BP046, Ponneri</description>
	<Point>
	<coordinates>80.173373,13.223528,678</coordinates>
	</Point>
</Placemark>
<Placemark>
<Style><IconStyle><Icon><href>http://tpds.gwtrack.com/static/kml/FPS.png</href></Icon></IconStyle></Style>
	<name>ATHOOR</name>
	<description> BP047, Ponneri</description>
	<Point>
	<coordinates>80.14904,13.250138,678</coordinates>
	</Point>
</Placemark>
<Placemark>
<Style><IconStyle><Icon><href>http://tpds.gwtrack.com/static/kml/FPS.png</href></Icon></IconStyle></Style>
	<name>ATTANTHANGAL</name>
	<description> BP048, Ponneri</description>
	<Point>
	<coordinates>80.167193,13.204434,678</coordinates>
	</Point>
</Placemark>
<Placemark>
<Style><IconStyle><Icon><href>http://tpds.gwtrack.com/static/kml/FPS.png</href></Icon></IconStyle></Style>
	<name>N.E.PALAYAM</name>
	<description> BP049, Ponneri</description>
	<Point>
	<coordinates>80.14904,13.250138,678</coordinates>
	</Point>
</Placemark>
<Placemark>
<Style><IconStyle><Icon><href>http://tpds.gwtrack.com/static/kml/FPS.png</href></Icon></IconStyle></Style>
	<name>O.E.PALAYAM</name>
	<description> BP050, Ponneri</description>
	<Point>
	<coordinates>80.144491,13.252352,678</coordinates>
	</Point>
</Placemark>
<Placemark>
<Style><IconStyle><Icon><href>http://tpds.gwtrack.com/static/kml/FPS.png</href></Icon></IconStyle></Style>
	<name>SOTHUPERUMBEDU</name>
	<description> BP051, Ponneri</description>
	<Point>
	<coordinates>80.164962,13.238734,678</coordinates>
	</Point>
</Placemark>
<Placemark>
<Style><IconStyle><Icon><href>http://tpds.gwtrack.com/static/kml/FPS.png</href></Icon></IconStyle></Style>
	<name>S.NALLUR</name>
	<description> BP052, Ponneri</description>
	<Point>
	<coordinates>80.163846,13.214378,678</coordinates>
	</Point>
</Placemark>
<Placemark>
<Style><IconStyle><Icon><href>http://tpds.gwtrack.com/static/kml/FPS.png</href></Icon></IconStyle></Style>
	<name>PADIYANALLUR-1</name>
	<description> BP053, Ponneri</description>
	<Point>
	<coordinates>80.175519,13.202178,678</coordinates>
	</Point>
</Placemark>
<Placemark>
<Style><IconStyle><Icon><href>http://tpds.gwtrack.com/static/kml/FPS.png</href></Icon></IconStyle></Style>
	<name>PADIYANALLUR-2</name>
	<description> BP054, Ponneri</description>
	<Point>
	<coordinates>80.176764,13.204058,678</coordinates>
	</Point>
</Placemark>
<Placemark>
<Style><IconStyle><Icon><href>http://tpds.gwtrack.com/static/kml/FPS.png</href></Icon></IconStyle></Style>
	<name>M.A.NAGAR</name>
	<description> BP055, Ponneri</description>
	<Point>
	<coordinates>80.175047,13.201969,678</coordinates>
	</Point>
</Placemark>
<Placemark>
<Style><IconStyle><Icon><href>http://tpds.gwtrack.com/static/kml/FPS.png</href></Icon></IconStyle></Style>
	<name>AZHINJIVAKKAM</name>
	<description> BP056, Ponneri</description>
	<Point>
	<coordinates>80.15389,13.266304,678</coordinates>
	</Point>
</Placemark>
<Placemark>
<Style><IconStyle><Icon><href>http://tpds.gwtrack.com/static/kml/FPS.png</href></Icon></IconStyle></Style>
	<name>IRULIPATTU</name>
	<description> BP057, Ponneri</description>
	<Point>
	<coordinates>80.155005,13.26622,678</coordinates>
	</Point>
</Placemark>
<Placemark>
<Style><IconStyle><Icon><href>http://tpds.gwtrack.com/static/kml/FPS.png</href></Icon></IconStyle></Style>
	<name>ATHIPEDU</name>
	<description> BP058, Ponneri</description>
	<Point>
	<coordinates>80.151529,13.278375,678</coordinates>
	</Point>
</Placemark>
<Placemark>
<Style><IconStyle><Icon><href>http://tpds.gwtrack.com/static/kml/FPS.png</href></Icon></IconStyle></Style>
	<name>INAMAGARAM</name>
	<description> BP059, Ponneri</description>
	<Point>
	<coordinates>80.164726,13.277018,678</coordinates>
	</Point>
</Placemark>
<Placemark>
<Style><IconStyle><Icon><href>http://tpds.gwtrack.com/static/kml/FPS.png</href></Icon></IconStyle></Style>
	<name>NEDUVARAMBAKKAM</name>
	<description> BP060, Ponneri</description>
	<Point>
	<coordinates>80.164104,13.276161,678</coordinates>
	</Point>
</Placemark>
<Placemark>
<Style><IconStyle><Icon><href>http://tpds.gwtrack.com/static/kml/FPS.png</href></Icon></IconStyle></Style>
	<name>JEGANNATHAPURAM</name>
	<description> BP061, Ponneri</description>
	<Point>
	<coordinates>80.164897,13.276078,678</coordinates>
	</Point>
</Placemark>
<Placemark>
<Style><IconStyle><Icon><href>http://tpds.gwtrack.com/static/kml/FPS.png</href></Icon></IconStyle></Style>
	<name>NERKUNDRAM</name>
	<description> BP062, Ponneri</description>
	<Point>
	<coordinates>80.186076,13.268601,678</coordinates>
	</Point>
</Placemark>
<Placemark>
<Style><IconStyle><Icon><href>http://tpds.gwtrack.com/static/kml/FPS.png</href></Icon></IconStyle></Style>
	<name>SENNIVAKKAM</name>
	<description> BP063, Ponneri</description>
	<Point>
	<coordinates>80.164104,13.276161,678</coordinates>
	</Point>
</Placemark>
<Placemark>
<Style><IconStyle><Icon><href>http://tpds.gwtrack.com/static/kml/FPS.png</href></Icon></IconStyle></Style>
	<name>SEKKANCHERY</name>
	<description> BP064, Ponneri</description>
	<Point>
	<coordinates>80.178738,13.266847,678</coordinates>
	</Point>
</Placemark>
<Placemark>
<Style><IconStyle><Icon><href>http://tpds.gwtrack.com/static/kml/FPS.png</href></Icon></IconStyle></Style>
	<name>SOORAPATTU</name>
	<description> BP065, Ponneri</description>
	<Point>
	<coordinates>80.196419,13.263338,678</coordinates>
	</Point>
</Placemark>
<Placemark>
<Style><IconStyle><Icon><href>http://tpds.gwtrack.com/static/kml/FPS.png</href></Icon></IconStyle></Style>
	<name>MALLIANKUPPAM</name>
	<description> BP086, Ponneri</description>
	<Point>
	<coordinates>80.098301,13.33225,678</coordinates>
	</Point>
</Placemark>
<Placemark>
<Style><IconStyle><Icon><href>http://tpds.gwtrack.com/static/kml/FPS.png</href></Icon></IconStyle></Style>
	<name>MADHAVARAM</name>
	<description> BP087, Ponneri</description>
	<Point>
	<coordinates>80.092735,13.336509,678</coordinates>
	</Point>
</Placemark>
<Placemark>
<Style><IconStyle><Icon><href>http://tpds.gwtrack.com/static/kml/FPS.png</href></Icon></IconStyle></Style>
	<name>PONDHAVAKKAM</name>
	<description> BP088, Ponneri</description>
	<Point>
	<coordinates>80.10046,13.338347,678</coordinates>
	</Point>
</Placemark>
<Placemark>
<Style><IconStyle><Icon><href>http://tpds.gwtrack.com/static/kml/FPS.png</href></Icon></IconStyle></Style>
	<name>ORAKKADU</name>
	<description> BP094, Ponneri</description>
	<Point>
	<coordinates>80.1823,13.245669,678</coordinates>
	</Point>
</Placemark>
<Placemark>
<Style><IconStyle><Icon><href>http://tpds.gwtrack.com/static/kml/FPS.png</href></Icon></IconStyle></Style>
	<name>GIRUTHALAPURAM</name>
	<description> BP095, Ponneri</description>
	<Point>
	<coordinates>80.19393,13.243956,678</coordinates>
	</Point>
</Placemark>
<Placemark>
<Style><IconStyle><Icon><href>http://tpds.gwtrack.com/static/kml/FPS.png</href></Icon></IconStyle></Style>
	<name>BUDUR</name>
	<description> BP096, Ponneri</description>
	<Point>
	<coordinates>80.19629,13.238525,678</coordinates>
	</Point>
</Placemark>
<Placemark>
<Style><IconStyle><Icon><href>http://tpds.gwtrack.com/static/kml/FPS.png</href></Icon></IconStyle></Style>
	<name>ANGADU</name>
	<description> BP097, Ponneri</description>
	<Point>
	<coordinates>80.194273,13.229961,678</coordinates>
	</Point>
</Placemark>
<Placemark>
<Style><IconStyle><Icon><href>http://tpds.gwtrack.com/static/kml/FPS.png</href></Icon></IconStyle></Style>
	<name>ALAMATHI</name>
	<description> BP098, Ponneri</description>
	<Point>
	<coordinates>80.108786,13.208696,678</coordinates>
	</Point>
</Placemark>
<Placemark>
<Style><IconStyle><Icon><href>http://tpds.gwtrack.com/static/kml/FPS.png</href></Icon></IconStyle></Style>
	<name>ARUMANTHAI</name>
	<description> BP099, Ponneri</description>
	<Point>
	<coordinates>80.218284,13.228269,678</coordinates>
	</Point>
</Placemark>
<Placemark>
<Style><IconStyle><Icon><href>http://tpds.gwtrack.com/static/kml/FPS.png</href></Icon></IconStyle></Style>
	<name>THIRUNILAI</name>
	<description> BP100, Ponneri</description>
	<Point>
	<coordinates>80.222211,13.230504,678</coordinates>
	</Point>
</Placemark>
<Placemark>
<Style><IconStyle><Icon><href>http://tpds.gwtrack.com/static/kml/FPS.png</href></Icon></IconStyle></Style>
	<name>THIRUNILAI-2</name>
	<description> BP100P1, Ponneri</description>
	<Point>
	<coordinates>80.237311,13.237272,678</coordinates>
	</Point>
</Placemark>
<Placemark>
<Style><IconStyle><Icon><href>http://tpds.gwtrack.com/static/kml/FPS.png</href></Icon></IconStyle></Style>
	<name>KANDIGAI</name>
	<description> BP101, Ponneri</description>
	<Point>
	<coordinates>80.209122,13.232342,678</coordinates>
	</Point>
</Placemark>
<Placemark>
<Style><IconStyle><Icon><href>http://tpds.gwtrack.com/static/kml/FPS.png</href></Icon></IconStyle></Style>
	<name>MARAMBEDU</name>
	<description> BP102, Ponneri</description>
	<Point>
	<coordinates>80.209122,13.232342,678</coordinates>
	</Point>
</Placemark>
<Placemark>
<Style><IconStyle><Icon><href>http://tpds.gwtrack.com/static/kml/FPS.png</href></Icon></IconStyle></Style>
	<name>PUDUPAKKAM</name>
	<description> BP103, Ponneri</description>
	<Point>
	<coordinates>80.212641,13.232259,678</coordinates>
	</Point>
</Placemark>
<Placemark>
<Style><IconStyle><Icon><href>http://tpds.gwtrack.com/static/kml/FPS.png</href></Icon></IconStyle></Style>
	<name>PERUNGAVUR</name>
	<description> BP104, Ponneri</description>
	<Point>
	<coordinates>80.218263,13.226159,678</coordinates>
	</Point>
</Placemark>
<Placemark>
<Style><IconStyle><Icon><href>http://tpds.gwtrack.com/static/kml/FPS.png</href></Icon></IconStyle></Style>
	<name>PERIYAMULLAIVAYAL</name>
	<description> BP105, Ponneri</description>
	<Point>
	<coordinates>80.234013,13.241115,678</coordinates>
	</Point>
</Placemark>
<Placemark>
<Style><IconStyle><Icon><href>http://tpds.gwtrack.com/static/kml/FPS.png</href></Icon></IconStyle></Style>
	<name>CHINNAMULLAIVAYAL</name>
	<description> BP106, Ponneri</description>
	<Point>
	<coordinates>80.234013,13.241115,678</coordinates>
	</Point>
</Placemark>
<Placemark>
<Style><IconStyle><Icon><href>http://tpds.gwtrack.com/static/kml/FPS.png</href></Icon></IconStyle></Style>
	<name>VICHOOR</name>
	<description> BP107, Ponneri</description>
	<Point>
	<coordinates>80.246445,13.219809,678</coordinates>
	</Point>
</Placemark>
<Placemark>
<Style><IconStyle><Icon><href>http://tpds.gwtrack.com/static/kml/FPS.png</href></Icon></IconStyle></Style>
	<name>SEMBIYAMANALI</name>
	<description> BP108, Ponneri</description>
	<Point>
	<coordinates>80.24148,13.215047,678</coordinates>
	</Point>
</Placemark>
<Placemark>
<Style><IconStyle><Icon><href>http://tpds.gwtrack.com/static/kml/FPS.png</href></Icon></IconStyle></Style>
	<name>VELLIVAYAL</name>
	<description> BP109, Ponneri</description>
	<Point>
	<coordinates>80.250222,13.233679,678</coordinates>
	</Point>
</Placemark>
<Placemark>
<Style><IconStyle><Icon><href>http://tpds.gwtrack.com/static/kml/FPS.png</href></Icon></IconStyle></Style>
	<name>PUDUKKUPAM</name>
	<description> BP110, Ponneri</description>
	<Point>
	<coordinates>80.194552,13.2681,678</coordinates>
	</Point>
</Placemark>
<Placemark>
<Style><IconStyle><Icon><href>http://tpds.gwtrack.com/static/kml/FPS.png</href></Icon></IconStyle></Style>
	<name>NAYAR</name>
	<description> BP111, Ponneri</description>
	<Point>
	<coordinates>80.213327,13.261083,678</coordinates>
	</Point>
</Placemark>
<Placemark>
<Style><IconStyle><Icon><href>http://tpds.gwtrack.com/static/kml/FPS.png</href></Icon></IconStyle></Style>
	<name>MAPHUSKHANPATTAI</name>
	<description> BP112, Ponneri</description>
	<Point>
	<coordinates>80.214958,13.256488,678</coordinates>
	</Point>
</Placemark>
<Placemark>
<Style><IconStyle><Icon><href>http://tpds.gwtrack.com/static/kml/FPS.png</href></Icon></IconStyle></Style>
	<name>MADIYUR</name>
	<description> BP113, Ponneri</description>
	<Point>
	<coordinates>80.241394,13.268184,678</coordinates>
	</Point>
</Placemark>
<Placemark>
<Style><IconStyle><Icon><href>http://tpds.gwtrack.com/static/kml/FPS.png</href></Icon></IconStyle></Style>
	<name>VAZHUTHIGAIMEDU</name>
	<description> BP114, Ponneri</description>
	<Point>
	<coordinates>80.229163,13.267724,678</coordinates>
	</Point>
</Placemark>
<Placemark>
<Style><IconStyle><Icon><href>http://tpds.gwtrack.com/static/kml/FPS.png</href></Icon></IconStyle></Style>
	<name>SEEMAPURAM</name>
	<description> BP115, Ponneri</description>
	<Point>
	<coordinates>80.24663,13.262336,678</coordinates>
	</Point>
</Placemark>
<Placemark>
<Style><IconStyle><Icon><href>http://tpds.gwtrack.com/static/kml/FPS.png</href></Icon></IconStyle></Style>
	<name>DEVADANAM</name>
	<description> BP116, Ponneri</description>
	<Point>
	<coordinates>80.242338,13.310618,678</coordinates>
	</Point>
</Placemark>
<Placemark>
<Style><IconStyle><Icon><href>http://tpds.gwtrack.com/static/kml/FPS.png</href></Icon></IconStyle></Style>
	<name>KANIYAMBAKKAM</name>
	<description> BP117, Ponneri</description>
	<Point>
	<coordinates>80.254269,13.318469,678</coordinates>
	</Point>
</Placemark>
<Placemark>
<Style><IconStyle><Icon><href>http://tpds.gwtrack.com/static/kml/FPS.png</href></Icon></IconStyle></Style>
	<name>THOTTAKADU</name>
	<description> BP118, Ponneri</description>
	<Point>
	<coordinates>80.262423,13.309783,678</coordinates>
	</Point>
</Placemark>
<Placemark>
<Style><IconStyle><Icon><href>http://tpds.gwtrack.com/static/kml/FPS.png</href></Icon></IconStyle></Style>
	<name>MERATTUR</name>
	<description> BP119, Ponneri</description>
	<Point>
	<coordinates>80.274954,13.311954,678</coordinates>
	</Point>
</Placemark>
<Placemark>
<Style><IconStyle><Icon><href>http://tpds.gwtrack.com/static/kml/FPS.png</href></Icon></IconStyle></Style>
	<name>KUMARASIRULAPAKKAM</name>
	<description> BP120, Ponneri</description>
	<Point>
	<coordinates>80.248089,13.325568,678</coordinates>
	</Point>
</Placemark>
<Placemark>
<Style><IconStyle><Icon><href>http://tpds.gwtrack.com/static/kml/FPS.png</href></Icon></IconStyle></Style>
	<name>KADAMANCHERY</name>
	<description> BP121, Ponneri</description>
	<Point>
	<coordinates>80.262165,13.325902,678</coordinates>
	</Point>
</Placemark>
<Placemark>
<Style><IconStyle><Icon><href>http://tpds.gwtrack.com/static/kml/FPS.png</href></Icon></IconStyle></Style>
	<name>SIRUVELUR</name>
	<description> BP122, Ponneri</description>
	<Point>
	<coordinates>80.271006,13.331999,678</coordinates>
	</Point>
</Placemark>
<Placemark>
<Style><IconStyle><Icon><href>http://tpds.gwtrack.com/static/kml/FPS.png</href></Icon></IconStyle></Style>
	<name>VELUR</name>
	<description> BP123, Ponneri</description>
	<Point>
	<coordinates>80.264955,13.329243,678</coordinates>
	</Point>
</Placemark>
<Placemark>
<Style><IconStyle><Icon><href>http://tpds.gwtrack.com/static/kml/FPS.png</href></Icon></IconStyle></Style>
	<name>ERIYAPILLAIKUPPAM</name>
	<description> BP124, Ponneri</description>
	<Point>
	<coordinates>80.260792,13.336426,678</coordinates>
	</Point>
</Placemark>
<Placemark>
<Style><IconStyle><Icon><href>http://tpds.gwtrack.com/static/kml/FPS.png</href></Icon></IconStyle></Style>
	<name>THIRUVELLAVAYAL</name>
	<description> BP125, Ponneri</description>
	<Point>
	<coordinates>80.284824,13.33083,678</coordinates>
	</Point>
</Placemark>
<Placemark>
<Style><IconStyle><Icon><href>http://tpds.gwtrack.com/static/kml/FPS.png</href></Icon></IconStyle></Style>
	<name>SENGAZINIMEDU</name>
	<description> BP126, Ponneri</description>
	<Point>
	<coordinates>80.295081,13.325652,678</coordinates>
	</Point>
</Placemark>
<Placemark>
<Style><IconStyle><Icon><href>http://tpds.gwtrack.com/static/kml/FPS.png</href></Icon></IconStyle></Style>
	<name>KATUPALLI</name>
	<description> BP127, Ponneri</description>
	<Point>
	<coordinates>80.338469,13.352627,678</coordinates>
	</Point>
</Placemark>
<Placemark>
<Style><IconStyle><Icon><href>http://tpds.gwtrack.com/static/kml/FPS.png</href></Icon></IconStyle></Style>
	<name>KATTUR</name>
	<description> BP128, Ponneri</description>
	<Point>
	<coordinates>80.285769,13.334463,678</coordinates>
	</Point>
</Placemark>
<Placemark>
<Style><IconStyle><Icon><href>http://tpds.gwtrack.com/static/kml/FPS.png</href></Icon></IconStyle></Style>
	<name>ATTIPATTU</name>
	<description> BP129, Ponneri</description>
	<Point>
	<coordinates>80.285511,13.2615,678</coordinates>
	</Point>
</Placemark>
<Placemark>
<Style><IconStyle><Icon><href>http://tpds.gwtrack.com/static/kml/FPS.png</href></Icon></IconStyle></Style>
	<name>KALPAKKAM</name>
	<description> BP130, Ponneri</description>
	<Point>
	<coordinates>80.270319,13.309616,678</coordinates>
	</Point>
</Placemark>
<Placemark>
<Style><IconStyle><Icon><href>http://tpds.gwtrack.com/static/kml/FPS.png</href></Icon></IconStyle></Style>
	<name>KOLLATY</name>
	<description> BP131, Ponneri</description>
	<Point>
	<coordinates>80.273666,13.272528,678</coordinates>
	</Point>
</Placemark>
<Placemark>
<Style><IconStyle><Icon><href>http://tpds.gwtrack.com/static/kml/FPS.png</href></Icon></IconStyle></Style>
	<name>K. R.PALAYAM</name>
	<description> BP132, Ponneri</description>
	<Point>
	<coordinates>80.268002,13.276036,678</coordinates>
	</Point>
</Placemark>
<Placemark>
<Style><IconStyle><Icon><href>http://tpds.gwtrack.com/static/kml/FPS.png</href></Icon></IconStyle></Style>
	<name>NANDIYAMPAKKAM</name>
	<description> BP133, Ponneri</description>
	<Point>
	<coordinates>80.277746,13.2711,678</coordinates>
	</Point>
</Placemark>
<Placemark>
<Style><IconStyle><Icon><href>http://tpds.gwtrack.com/static/kml/FPS.png</href></Icon></IconStyle></Style>
	<name>NALUR</name>
	<description> BP134, Ponneri</description>
	<Point>
	<coordinates>80.251179,13.284452,678</coordinates>
	</Point>
</Placemark>
<Placemark>
<Style><IconStyle><Icon><href>http://tpds.gwtrack.com/static/kml/FPS.png</href></Icon></IconStyle></Style>
	<name>KONDAKARAI</name>
	<description> BP135, Ponneri</description>
	<Point>
	<coordinates>80.269718,13.243037,678</coordinates>
	</Point>
</Placemark>
<Placemark>
<Style><IconStyle><Icon><href>http://tpds.gwtrack.com/static/kml/FPS.png</href></Icon></IconStyle></Style>
	<name>NEITHAVAYAL</name>
	<description> BP136, Ponneri</description>
	<Point>
	<coordinates>80.272636,13.304103,678</coordinates>
	</Point>
</Placemark>
<Placemark>
<Style><IconStyle><Icon><href>http://tpds.gwtrack.com/static/kml/FPS.png</href></Icon></IconStyle></Style>
	<name>PATTAMANDIRI</name>
	<description> BP137, Ponneri</description>
	<Point>
	<coordinates>80.279417,13.262085,678</coordinates>
	</Point>
</Placemark>
<Placemark>
<Style><IconStyle><Icon><href>http://tpds.gwtrack.com/static/kml/FPS.png</href></Icon></IconStyle></Style>
	<name>VALLUR</name>
	<description> BP138, Ponneri</description>
	<Point>
	<coordinates>80.296154,13.258994,678</coordinates>
	</Point>
</Placemark>
<Placemark>
<Style><IconStyle><Icon><href>http://tpds.gwtrack.com/static/kml/FPS.png</href></Icon></IconStyle></Style>
	<name>MELUR</name>
	<description> BP139, Ponneri</description>
	<Point>
	<coordinates>80.268517,13.261918,678</coordinates>
	</Point>
</Placemark>
<Placemark>
<Style><IconStyle><Icon><href>http://tpds.gwtrack.com/static/kml/FPS.png</href></Icon></IconStyle></Style>
	<name>VELLAMBAKKAM</name>
	<description> BP140, Ponneri</description>
	<Point>
	<coordinates>80.263367,13.306859,678</coordinates>
	</Point>
</Placemark>
<Placemark>
<Style><IconStyle><Icon><href>http://tpds.gwtrack.com/static/kml/FPS.png</href></Icon></IconStyle></Style>
	<name>IDAYANCHAVADI</name>
	<description> BP141, Ponneri</description>
	<Point>
	<coordinates>80.273795,13.217846,678</coordinates>
	</Point>
</Placemark>
<Placemark>
<Style><IconStyle><Icon><href>http://tpds.gwtrack.com/static/kml/FPS.png</href></Icon></IconStyle></Style>
	<name>A.REDDYPALAYAM</name>
	<description> BP142, Ponneri</description>
	<Point>
	<coordinates>80.26341,13.353588,678</coordinates>
	</Point>
</Placemark>
<Placemark>
<Style><IconStyle><Icon><href>http://tpds.gwtrack.com/static/kml/FPS.png</href></Icon></IconStyle></Style>
	<name>THATHAMANJI</name>
	<description> BP143, Ponneri</description>
	<Point>
	<coordinates>80.28019,13.377721,678</coordinates>
	</Point>
</Placemark>
<Placemark>
<Style><IconStyle><Icon><href>http://tpds.gwtrack.com/static/kml/FPS.png</href></Icon></IconStyle></Style>
	<name>MANOPURAM</name>
	<description> BP144, Ponneri</description>
	<Point>
	<coordinates>80.25208,13.343629,678</coordinates>
	</Point>
</Placemark>
<Placemark>
<Style><IconStyle><Icon><href>http://tpds.gwtrack.com/static/kml/FPS.png</href></Icon></IconStyle></Style>
	<name>SOMANJERY</name>
	<description> BP145, Ponneri</description>
	<Point>
	<coordinates>80.266521,13.359371,678</coordinates>
	</Point>
</Placemark>
<Placemark>
<Style><IconStyle><Icon><href>http://tpds.gwtrack.com/static/kml/FPS.png</href></Icon></IconStyle></Style>
	<name>ANUPAMPATTU</name>
	<description> BP146, Ponneri</description>
	<Point>
	<coordinates>80.229764,13.302474,678</coordinates>
	</Point>
</Placemark>
<Placemark>
<Style><IconStyle><Icon><href>http://tpds.gwtrack.com/static/kml/FPS.png</href></Icon></IconStyle></Style>
	<name>ANUPAMPATTU-2</name>
	<description> BP146P1, Ponneri</description>
	<Point>
	<coordinates>80.235257,13.305356,678</coordinates>
	</Point>
</Placemark>
<Placemark>
<Style><IconStyle><Icon><href>http://tpds.gwtrack.com/static/kml/FPS.png</href></Icon></IconStyle></Style>
	<name>ATHREYAMANGALAM</name>
	<description> BP147, Ponneri</description>
	<Point>
	<coordinates>80.207705,13.308864,678</coordinates>
	</Point>
</Placemark>
<Placemark>
<Style><IconStyle><Icon><href>http://tpds.gwtrack.com/static/kml/FPS.png</href></Icon></IconStyle></Style>
	<name>ILAVAMBEDU</name>
	<description> BP148, Ponneri</description>
	<Point>
	<coordinates>80.217447,13.292075,678</coordinates>
	</Point>
</Placemark>
<Placemark>
<Style><IconStyle><Icon><href>http://tpds.gwtrack.com/static/kml/FPS.png</href></Icon></IconStyle></Style>
	<name>GANGAIYADIKUPPAM</name>
	<description> BP149, Ponneri</description>
	<Point>
	<coordinates>80.205345,13.287731,678</coordinates>
	</Point>
</Placemark>
<Placemark>
<Style><IconStyle><Icon><href>http://tpds.gwtrack.com/static/kml/FPS.png</href></Icon></IconStyle></Style>
	<name>MURUCHAMBEDU</name>
	<description> BP150, Ponneri</description>
	<Point>
	<coordinates>80.222855,13.296209,678</coordinates>
	</Point>
</Placemark>
<Placemark>
<Style><IconStyle><Icon><href>http://tpds.gwtrack.com/static/kml/FPS.png</href></Icon></IconStyle></Style>
	<name>MALIVAKKAM</name>
	<description> BP151, Ponneri</description>
	<Point>
	<coordinates>80.197964,13.292242,678</coordinates>
	</Point>
</Placemark>
<Placemark>
<Style><IconStyle><Icon><href>http://tpds.gwtrack.com/static/kml/FPS.png</href></Icon></IconStyle></Style>
	<name>PULIKULAM</name>
	<description> BP152, Ponneri</description>
	<Point>
	<coordinates>80.213842,13.310576,678</coordinates>
	</Point>
</Placemark>
<Placemark>
<Style><IconStyle><Icon><href>http://tpds.gwtrack.com/static/kml/FPS.png</href></Icon></IconStyle></Style>
	<name>SIRUVAKAM</name>
	<description> BP153, Ponneri</description>
	<Point>
	<coordinates>80.208178,13.291657,678</coordinates>
	</Point>
</Placemark>
<Placemark>
<Style><IconStyle><Icon><href>http://tpds.gwtrack.com/static/kml/FPS.png</href></Icon></IconStyle></Style>
	<name>VANNIPAKKAM</name>
	<description> BP154, Ponneri</description>
	<Point>
	<coordinates>80.211439,13.284974,678</coordinates>
	</Point>
</Placemark>
<Placemark>
<Style><IconStyle><Icon><href>http://tpds.gwtrack.com/static/kml/FPS.png</href></Icon></IconStyle></Style>
	<name>THIRUPALAIVANAM</name>
	<description> BP155, Ponneri</description>
	<Point>
	<coordinates>80.251522,13.402227,678</coordinates>
	</Point>
</Placemark>
<Placemark>
<Style><IconStyle><Icon><href>http://tpds.gwtrack.com/static/kml/FPS.png</href></Icon></IconStyle></Style>
	<name>VANCHIVAKKAM</name>
	<description> BP156, Ponneri</description>
	<Point>
	<coordinates>80.254869,13.390622,678</coordinates>
	</Point>
</Placemark>
<Placemark>
<Style><IconStyle><Icon><href>http://tpds.gwtrack.com/static/kml/FPS.png</href></Icon></IconStyle></Style>
	<name>PIRALAYAMPAKKAM</name>
	<description> BP157, Ponneri</description>
	<Point>
	<coordinates>80.274782,13.396675,678</coordinates>
	</Point>
</Placemark>
<Placemark>
<Style><IconStyle><Icon><href>http://tpds.gwtrack.com/static/kml/FPS.png</href></Icon></IconStyle></Style>
	<name>POLACHIYAMMANKULAM</name>
	<description> BP157P1, Ponneri</description>
	<Point>
	<coordinates>80.283279,13.405024,678</coordinates>
	</Point>
</Placemark>
<Placemark>
<Style><IconStyle><Icon><href>http://tpds.gwtrack.com/static/kml/FPS.png</href></Icon></IconStyle></Style>
	<name>PAKKAM</name>
	<description> BP158, Ponneri</description>
	<Point>
	<coordinates>80.28461,13.406736,678</coordinates>
	</Point>
</Placemark>
<Placemark>
<Style><IconStyle><Icon><href>http://tpds.gwtrack.com/static/kml/FPS.png</href></Icon></IconStyle></Style>
	<name>POOVAMI</name>
	<description> BP159, Ponneri</description>
	<Point>
	<coordinates>80.232253,13.404607,678</coordinates>
	</Point>
</Placemark>
<Placemark>
<Style><IconStyle><Icon><href>http://tpds.gwtrack.com/static/kml/FPS.png</href></Icon></IconStyle></Style>
	<name>KANCHIVAYAL</name>
	<description> BP160, Ponneri</description>
	<Point>
	<coordinates>80.241051,13.399973,678</coordinates>
	</Point>
</Placemark>
<Placemark>
<Style><IconStyle><Icon><href>http://tpds.gwtrack.com/static/kml/FPS.png</href></Icon></IconStyle></Style>
	<name>AVURIVAKKAM</name>
	<description> BP161, Ponneri</description>
	<Point>
	<coordinates>80.27137,13.427712,678</coordinates>
	</Point>
</Placemark>
<Placemark>
<Style><IconStyle><Icon><href>http://tpds.gwtrack.com/static/kml/FPS.png</href></Icon></IconStyle></Style>
	<name>SIRULAPAKKAM</name>
	<description> BP162, Ponneri</description>
	<Point>
	<coordinates>80.254183,13.41928,678</coordinates>
	</Point>
</Placemark>
<Placemark>
<Style><IconStyle><Icon><href>http://tpds.gwtrack.com/static/kml/FPS.png</href></Icon></IconStyle></Style>
	<name>MEDUR</name>
	<description> BP163, Ponneri</description>
	<Point>
	<coordinates>80.219293,13.385486,678</coordinates>
	</Point>
</Placemark>
<Placemark>
<Style><IconStyle><Icon><href>http://tpds.gwtrack.com/static/kml/FPS.png</href></Icon></IconStyle></Style>
	<name>AVOOR</name>
	<description> BP164, Ponneri</description>
	<Point>
	<coordinates>80.22234,13.402436,678</coordinates>
	</Point>
</Placemark>
<Placemark>
<Style><IconStyle><Icon><href>http://tpds.gwtrack.com/static/kml/FPS.png</href></Icon></IconStyle></Style>
	<name>VIDANTHANDALAM</name>
	<description> BP165, Ponneri</description>
	<Point>
	<coordinates>80.202212,13.383023,678</coordinates>
	</Point>
</Placemark>
<Placemark>
<Style><IconStyle><Icon><href>http://tpds.gwtrack.com/static/kml/FPS.png</href></Icon></IconStyle></Style>
	<name>ERUSIVAN</name>
	<description> BP166, Ponneri</description>
	<Point>
	<coordinates>80.201826,13.346322,678</coordinates>
	</Point>
</Placemark>
<Placemark>
<Style><IconStyle><Icon><href>http://tpds.gwtrack.com/static/kml/FPS.png</href></Icon></IconStyle></Style>
	<name>DEVARANCHERY</name>
	<description> BP167, Ponneri</description>
	<Point>
	<coordinates>80.201612,13.344777,678</coordinates>
	</Point>
</Placemark>
<Placemark>
<Style><IconStyle><Icon><href>http://tpds.gwtrack.com/static/kml/FPS.png</href></Icon></IconStyle></Style>
	<name>VEERANGIVEDU</name>
	<description> BP168, Ponneri</description>
	<Point>
	<coordinates>80.201998,13.348285,678</coordinates>
	</Point>
</Placemark>
<Placemark>
<Style><IconStyle><Icon><href>http://tpds.gwtrack.com/static/kml/FPS.png</href></Icon></IconStyle></Style>
	<name>MADIMAIKANDIGAI</name>
	<description> BP169, Ponneri</description>
	<Point>
	<coordinates>80.201998,13.348285,678</coordinates>
	</Point>
</Placemark>
<Placemark>
<Style><IconStyle><Icon><href>http://tpds.gwtrack.com/static/kml/FPS.png</href></Icon></IconStyle></Style>
	<name>VEMBEDU</name>
	<description> BP170, Ponneri</description>
	<Point>
	<coordinates>80.223069,13.39726,678</coordinates>
	</Point>
</Placemark>
<Placemark>
<Style><IconStyle><Icon><href>http://tpds.gwtrack.com/static/kml/FPS.png</href></Icon></IconStyle></Style>
	<name>PARIKIPATTU</name>
	<description> BP171, Ponneri</description>
	<Point>
	<coordinates>80.201569,13.36006,678</coordinates>
	</Point>
</Placemark>
<Placemark>
<Style><IconStyle><Icon><href>http://tpds.gwtrack.com/static/kml/FPS.png</href></Icon></IconStyle></Style>
	<name>LAKSHMIPURAM</name>
	<description> BP172, Ponneri</description>
	<Point>
	<coordinates>80.211868,13.339683,678</coordinates>
	</Point>
</Placemark>
<Placemark>
<Style><IconStyle><Icon><href>http://tpds.gwtrack.com/static/kml/FPS.png</href></Icon></IconStyle></Style>
	<name>UPPALAM</name>
	<description> BP173, Ponneri</description>
	<Point>
	<coordinates>80.195475,13.346531,678</coordinates>
	</Point>
</Placemark>
<Placemark>
<Style><IconStyle><Icon><href>http://tpds.gwtrack.com/static/kml/FPS.png</href></Icon></IconStyle></Style>
	<name>ARAVAKKAM</name>
	<description> BP174, Ponneri</description>
	<Point>
	<coordinates>80.217104,13.340434,678</coordinates>
	</Point>
</Placemark>
<Placemark>
<Style><IconStyle><Icon><href>http://tpds.gwtrack.com/static/kml/FPS.png</href></Icon></IconStyle></Style>
	<name>MATHRAVEDU</name>
	<description> BP175, Ponneri</description>
	<Point>
	<coordinates>80.217104,13.340434,678</coordinates>
	</Point>
</Placemark>
<Placemark>
<Style><IconStyle><Icon><href>http://tpds.gwtrack.com/static/kml/FPS.png</href></Icon></IconStyle></Style>
	<name>P.KAMMAVARPALAYAM</name>
	<description> BP176, Ponneri</description>
	<Point>
	<coordinates>80.247574,13.34912,678</coordinates>
	</Point>
</Placemark>
<Placemark>
<Style><IconStyle><Icon><href>http://tpds.gwtrack.com/static/kml/FPS.png</href></Icon></IconStyle></Style>
	<name>LINGIPAIYANPETAI</name>
	<description> BP177, Ponneri</description>
	<Point>
	<coordinates>80.243797,13.347032,678</coordinates>
	</Point>
</Placemark>
<Placemark>
<Style><IconStyle><Icon><href>http://tpds.gwtrack.com/static/kml/FPS.png</href></Icon></IconStyle></Style>
	<name>ASANABUDUR</name>
	<description> BP178, Ponneri</description>
	<Point>
	<coordinates>80.249634,13.379266,678</coordinates>
	</Point>
</Placemark>
<Placemark>
<Style><IconStyle><Icon><href>http://tpds.gwtrack.com/static/kml/FPS.png</href></Icon></IconStyle></Style>
	<name>PERUMBEDU</name>
	<description> BP179, Ponneri</description>
	<Point>
	<coordinates>80.248175,13.358306,678</coordinates>
	</Point>
</Placemark>
<Placemark>
<Style><IconStyle><Icon><href>http://tpds.gwtrack.com/static/kml/FPS.png</href></Icon></IconStyle></Style>
	<name>VOYALOORE</name>
	<description> BP180, Ponneri</description>
	<Point>
	<coordinates>80.338469,13.352627,678</coordinates>
	</Point>
</Placemark>
<Placemark>
<Style><IconStyle><Icon><href>http://tpds.gwtrack.com/static/kml/FPS.png</href></Icon></IconStyle></Style>
	<name>KATTUR COLONY</name>
	<description> BP181, Ponneri</description>
	<Point>
	<coordinates>80.290704,13.336426,678</coordinates>
	</Point>
</Placemark>
<Placemark>
<Style><IconStyle><Icon><href>http://tpds.gwtrack.com/static/kml/FPS.png</href></Icon></IconStyle></Style>
	<name>URANAMBEDU</name>
	<description> BP182, Ponneri</description>
	<Point>
	<coordinates>80.30654,13.325735,678</coordinates>
	</Point>
</Placemark>
<Placemark>
<Style><IconStyle><Icon><href>http://tpds.gwtrack.com/static/kml/FPS.png</href></Icon></IconStyle></Style>
	<name>P.T.MURTHY nagar</name>
	<description> BP183, Ponneri</description>
	<Point>
	<coordinates>80.173674,13.204393,678</coordinates>
	</Point>
</Placemark>
<Placemark>
<Style><IconStyle><Icon><href>http://tpds.gwtrack.com/static/kml/FPS.png</href></Icon></IconStyle></Style>
	<name>BHAVANI NAGAR</name>
	<description> BP184, Ponneri</description>
	<Point>
	<coordinates>80.187407,13.197749,678</coordinates>
	</Point>
</Placemark>
<Placemark>
<Style><IconStyle><Icon><href>http://tpds.gwtrack.com/static/kml/FPS.png</href></Icon></IconStyle></Style>
	<name>KAMAVARPALAYAM</name>
	<description> BP185, Ponneri</description>
	<Point>
	<coordinates>80.249097,13.282218,678</coordinates>
	</Point>
</Placemark>
<Placemark>
<Style><IconStyle><Icon><href>http://tpds.gwtrack.com/static/kml/FPS.png</href></Icon></IconStyle></Style>
	<name>EDAPALLAYAM</name>
	<description> BP186, Ponneri</description>
	<Point>
	<coordinates>80.11651,13.204351,678</coordinates>
	</Point>
</Placemark>
<Placemark>
<Style><IconStyle><Icon><href>http://tpds.gwtrack.com/static/kml/FPS.png</href></Icon></IconStyle></Style>
	<name>BALAJI NAGAR</name>
	<description> BP187, Ponneri</description>
	<Point>
	<coordinates>80.264482,13.279461,678</coordinates>
	</Point>
</Placemark>
<Placemark>
<Style><IconStyle><Icon><href>http://tpds.gwtrack.com/static/kml/FPS.png</href></Icon></IconStyle></Style>
	<name>LAKSHMI PURAM</name>
	<description> BP188, Ponneri</description>
	<Point>
	<coordinates>80.258474,13.271316,678</coordinates>
	</Point>
</Placemark>
<Placemark>
<Style><IconStyle><Icon><href>http://tpds.gwtrack.com/static/kml/FPS.png</href></Icon></IconStyle></Style>
	<name>VELLALAR STREET</name>
	<description> BP189, Ponneri</description>
	<Point>
	<coordinates>80.258303,13.280839,678</coordinates>
	</Point>
</Placemark>
<Placemark>
<Style><IconStyle><Icon><href>http://tpds.gwtrack.com/static/kml/FPS.png</href></Icon></IconStyle></Style>
	<name>S.R.PALAYAM</name>
	<description> BP190, Ponneri</description>
	<Point>
	<coordinates>80.27092,13.230337,678</coordinates>
	</Point>
</Placemark>
<Placemark>
<Style><IconStyle><Icon><href>http://tpds.gwtrack.com/static/kml/FPS.png</href></Icon></IconStyle></Style>
	<name>PASUVANPALAYAM</name>
	<description> BP191, Ponneri</description>
	<Point>
	<coordinates>80.21204,13.27637,678</coordinates>
	</Point>
</Placemark>
<Placemark>
<Style><IconStyle><Icon><href>http://tpds.gwtrack.com/static/kml/FPS.png</href></Icon></IconStyle></Style>
	<name>CHINNAMBEDU II</name>
	<description> BP192, Ponneri</description>
	<Point>
	<coordinates>80.122261,13.321058,678</coordinates>
	</Point>
</Placemark>
<Placemark>
<Style><IconStyle><Icon><href>http://tpds.gwtrack.com/static/kml/FPS.png</href></Icon></IconStyle></Style>
	<name>GANTHINAGARWEST-2</name>
	<description> BP193, Ponneri</description>
	<Point>
	<coordinates>80.163417,13.197227,678</coordinates>
	</Point>
</Placemark>
<Placemark>
<Style><IconStyle><Icon><href>http://tpds.gwtrack.com/static/kml/FPS.png</href></Icon></IconStyle></Style>
	<name>SIVANTHIATHITHANNAGAR-3</name>
	<description> BP194, Ponneri</description>
	<Point>
	<coordinates>80.159469,13.197958,678</coordinates>
	</Point>
</Placemark>
<Placemark>
<Style><IconStyle><Icon><href>http://tpds.gwtrack.com/static/kml/FPS.png</href></Icon></IconStyle></Style>
	<name>Dr.AMBETHKARNAGAR-4</name>
	<description> BP195, Ponneri</description>
	<Point>
	<coordinates>80.160885,13.198585,678</coordinates>
	</Point>
</Placemark>
<Placemark>
<Style><IconStyle><Icon><href>http://tpds.gwtrack.com/static/kml/FPS.png</href></Icon></IconStyle></Style>
	<name>SHOZHIPPALAYAM-3</name>
	<description> BP196, Ponneri</description>
	<Point>
	<coordinates>80.166807,13.237606,678</coordinates>
	</Point>
</Placemark>
<Placemark>
<Style><IconStyle><Icon><href>http://tpds.gwtrack.com/static/kml/FPS.png</href></Icon></IconStyle></Style>
	<name>THIRUVENGADAPURAM-2</name>
	<description> BP197, Ponneri</description>
	<Point>
	<coordinates>80.198565,13.326884,678</coordinates>
	</Point>
</Placemark>
</Document>
</kml>
